,City,Lat,Lng,Max Temp,Humidity,Cloudiness,Wind Speed,Country,Date
0,ribeira grande,38.52,-28.7,62.6,72,40,8.05,PT,1592169751
1,faya,18.39,42.45,75.2,46,97,1.12,SA,1592169751
2,qaanaaq,77.48,-69.36,41.83,69,0,5.88,GL,1592169751
3,hermanus,-34.42,19.23,52.0,96,89,1.07,ZA,1592169751
4,mahina,-17.51,-149.49,84.2,66,20,4.7,PF,1592169751
5,grindavik,63.84,-22.43,48.2,100,90,27.51,IS,1592169557
6,lypnyazhka,48.45,31.08,63.52,85,0,2.35,UA,1592169751
7,klaksvik,62.23,-6.59,50.0,87,30,2.24,FO,1592169556
8,port alfred,-33.59,26.89,55.99,80,24,1.01,ZA,1592169751
9,albany,42.6,-73.97,72.0,36,37,4.9,US,1592169540
10,airai,-8.93,125.41,57.42,100,9,4.23,TL,1592169751
11,kapaa,22.08,-159.32,82.4,65,75,12.75,US,1592169454
12,jamestown,42.1,-79.24,68.0,34,1,11.65,US,1592169751
13,atuona,-9.8,-139.03,80.44,73,24,14.58,PF,1592169277
14,alakurtti,66.97,30.35,64.99,44,55,3.0,RU,1592169751
15,severo-kurilsk,50.68,156.12,40.95,92,100,14.79,RU,1592169368
16,trelew,-43.25,-65.31,50.23,47,66,4.61,AR,1592169751
17,price,39.6,-110.81,80.6,13,1,11.41,US,1592169751
18,mujiayingzi,42.12,118.78,64.92,39,0,9.17,CN,1592169751
19,bethel,41.37,-73.41,75.0,49,75,6.93,US,1592169502
20,rikitea,-23.12,-134.97,75.99,84,35,15.99,PF,1592169751
21,mataura,-46.19,168.86,39.0,83,97,3.0,NZ,1592169453
22,saint-philippe,-21.36,55.77,71.6,64,37,11.41,RE,1592169451
23,yatou,37.15,122.38,66.31,46,89,5.95,CN,1592169751
24,ushuaia,-54.8,-68.3,32.0,94,40,6.93,AR,1592169752
25,vitim,59.45,112.56,55.53,87,99,3.83,RU,1592169752
26,pangoa,-12.12,-73.0,75.11,84,36,3.42,PE,1592169752
27,dikson,73.51,80.55,31.57,95,3,15.19,RU,1592169280
28,bredasdorp,-34.53,20.04,53.6,93,97,2.73,ZA,1592169278
29,san cristobal,7.77,-72.22,95.0,34,40,17.22,VE,1592169752
30,tasiilaq,65.61,-37.64,37.4,93,100,47.2,GL,1592169277
31,port elizabeth,-33.92,25.57,60.8,59,31,11.41,ZA,1592169752
32,mbini,1.57,9.61,76.89,88,100,8.99,GQ,1592169752
33,leshukonskoye,64.9,45.76,56.7,67,72,5.93,RU,1592169752
34,kruisfontein,-34.0,24.73,51.85,71,35,6.29,ZA,1592169752
35,lufilufi,-13.87,-171.6,78.8,88,75,9.17,WS,1592169752
36,bahia blanca,-38.72,-62.27,53.08,41,0,9.13,AR,1592169752
37,ambarawa,-7.26,110.4,71.78,90,6,1.9,ID,1592169752
38,busselton,-33.65,115.33,55.99,70,81,10.13,AU,1592169454
39,manavalakurichi,8.13,77.3,82.4,83,75,8.05,IN,1592169752
40,ilulissat,69.22,-51.1,35.6,74,99,10.29,GL,1592169752
41,avarua,-21.21,-159.78,75.2,50,75,8.05,CK,1592169752
42,longyearbyen,78.22,15.64,35.6,92,75,14.99,SJ,1592169752
43,esso,55.93,158.7,60.17,37,79,3.2,RU,1592169752
44,altay,47.87,88.12,57.15,51,5,2.71,CN,1592169531
45,san ignacio,17.16,-89.07,87.8,62,75,6.93,BZ,1592169752
46,maryville,35.76,-83.97,78.8,41,75,5.68,US,1592169752
47,provideniya,64.38,-173.3,48.2,76,72,6.71,RU,1592169278
48,mandalgovi,45.76,106.27,63.63,28,28,8.99,MN,1592169539
49,changli,39.7,119.15,73.0,23,0,6.6,CN,1592169753
50,tuktoyaktuk,69.45,-133.04,69.8,40,20,14.99,CA,1592169276
51,sitka,57.05,-135.33,50.0,87,90,3.36,US,1592169511
52,puerto ayora,-0.74,-90.35,78.8,65,40,13.87,EC,1592169753
53,san luis,-33.3,-66.34,56.12,37,0,13.29,AR,1592169753
54,grand gaube,-20.01,57.66,70.0,79,1,5.99,MU,1592169753
55,upernavik,72.79,-56.15,33.04,94,97,13.71,GL,1592169525
56,feicheng,35.26,117.97,73.99,45,96,2.44,CN,1592169753
57,pak phanang,8.35,100.2,79.84,82,100,9.17,TH,1592169753
58,hithadhoo,-0.6,73.08,84.11,74,60,12.62,MV,1592169375
59,marsabit,2.33,37.99,67.77,69,38,21.77,KE,1592169753
60,charagua,-19.8,-63.22,67.3,47,3,3.42,BO,1592169753
61,nalut,30.33,10.85,73.87,51,0,21.03,LY,1592169753
62,alingsas,57.93,12.53,66.99,39,0,8.05,SE,1592169753
63,boundiali,9.52,-6.49,80.29,69,75,9.26,CI,1592169753
64,bluff,-46.6,168.33,39.0,83,100,3.0,NZ,1592169452
65,hastings,50.86,0.57,60.01,85,46,1.63,GB,1592169753
66,chokurdakh,70.63,147.92,70.32,43,100,9.69,RU,1592169536
67,katsuura,35.13,140.3,75.0,92,93,15.68,JP,1592169504
68,torbat-e jam,35.24,60.62,78.69,16,0,1.1,IR,1592169753
69,husavik,66.04,-17.34,59.0,54,71,13.87,IS,1592168979
70,wuwei,37.93,102.64,68.0,66,98,1.48,CN,1592169754
71,arlit,18.74,7.39,104.61,8,76,13.76,NE,1592169685
72,zyryanka,65.75,150.85,74.46,37,43,8.95,RU,1592169754
73,berlevag,70.86,29.09,50.0,71,75,19.46,NO,1592169368
74,mar del plata,-38.0,-57.56,52.0,53,0,5.82,AR,1592169754
75,nikolskoye,59.7,30.79,60.8,63,0,6.71,RU,1592169628
76,hilo,19.73,-155.09,77.0,69,75,3.36,US,1592169375
77,hobart,-42.88,147.33,55.0,71,75,5.82,AU,1592169605
78,feni,23.02,91.41,79.56,89,18,7.52,BD,1592169754
79,bolu,40.67,31.58,57.13,78,36,1.61,TR,1592169754
80,lorengau,-2.02,147.27,82.96,74,46,7.65,PG,1592169754
81,port lincoln,-34.73,135.87,58.24,86,5,13.87,AU,1592169754
82,cape town,-33.93,18.42,55.99,100,40,4.7,ZA,1592169580
83,vaini,-21.2,-175.2,73.4,69,20,10.29,TO,1592169451
84,hamilton,39.18,-84.53,75.99,43,40,11.41,US,1592169754
85,poum,-20.23,164.02,74.3,76,4,20.0,NC,1592169531
86,thompson,55.74,-97.86,78.8,41,75,10.29,CA,1592169277
87,lagunas,-5.23,-75.68,82.02,86,17,3.58,PE,1592169754
88,cornwall,45.02,-74.73,69.8,30,1,9.17,CA,1592169754
89,russell,32.35,-85.2,87.8,38,75,4.7,US,1592169754
90,kenai,60.55,-151.26,59.0,66,1,9.17,US,1592169603
91,fairbanks,64.84,-147.72,55.4,93,90,1.45,US,1592169602
92,pangnirtung,66.15,-65.71,37.4,74,90,17.22,CA,1592169754
93,orapa,-21.28,25.37,50.76,79,0,8.25,BW,1592169754
94,pevek,69.7,170.31,38.01,88,50,4.9,RU,1592169497
95,vao,-22.67,167.48,72.09,76,21,19.95,NC,1592169451
96,dunedin,-45.87,170.5,45.0,61,50,3.0,NZ,1592169755
97,yellowknife,62.46,-114.35,68.0,42,75,23.04,CA,1592169755
98,waingapu,-9.66,120.26,75.47,85,5,8.88,ID,1592169755
99,constitucion,-35.33,-72.42,55.11,57,0,2.1,CL,1592169755
100,vestmannaeyjar,63.44,-20.27,49.21,90,100,21.36,IS,1592169755
101,new norfolk,-42.78,147.06,54.0,80,10,5.01,AU,1592169587
102,dover,39.16,-75.52,75.2,64,1,11.41,US,1592169637
103,khatanga,71.97,102.5,54.77,41,0,14.36,RU,1592169539
104,sabya,17.15,42.63,89.6,75,41,4.32,SA,1592169755
105,progreso,21.28,-89.67,95.0,47,75,10.6,MX,1592169755
106,port moresby,-9.44,147.18,78.8,94,40,11.41,PG,1592169755
107,aklavik,68.22,-135.01,77.0,25,20,11.41,CA,1592169755
108,bulawayo,-20.15,28.58,48.9,88,9,7.31,ZW,1592169755
109,nacala,-14.54,40.67,68.63,86,69,11.18,MZ,1592169755
110,tselinnoye,53.08,85.67,50.94,91,69,7.2,RU,1592169755
111,santiago del estero,-27.8,-64.26,64.69,26,23,10.8,AR,1592169755
112,butaritari,3.07,172.79,82.58,71,66,6.42,KI,1592169454
113,punta arenas,-53.15,-70.92,37.4,86,90,12.75,CL,1592169755
114,ponta do sol,32.67,-17.1,69.8,83,20,12.75,PT,1592169504
115,puksoozero,62.59,40.61,54.0,73,0,5.99,RU,1592169755
116,puerto quijarro,-17.78,-57.77,74.66,67,6,6.29,BO,1592169755
117,asau,46.43,26.4,63.0,93,79,3.49,RO,1592169755
118,sao felix do xingu,-6.64,-51.99,78.87,69,100,3.42,BR,1592169756
119,shakawe,-18.37,21.85,54.55,45,0,6.02,BW,1592169756
120,houston,29.76,-95.36,93.99,38,20,10.29,US,1592169602
121,krasnokamensk,50.1,118.04,54.36,59,4,3.13,RU,1592169756
122,bambous virieux,-20.34,57.76,71.6,68,20,10.29,MU,1592169500
123,arraial do cabo,-22.97,-42.03,73.4,78,75,11.41,BR,1592169756
124,oranjemund,-28.55,16.43,56.46,52,58,13.65,NA,1592169756
125,bulgan,48.81,103.53,57.6,45,99,2.59,MN,1592169756
126,east london,-33.02,27.91,61.02,32,46,9.6,ZA,1592169756
127,abalak,58.13,68.59,45.72,79,8,6.4,RU,1592169589
128,bagru,26.81,75.54,84.2,70,40,3.36,IN,1592169756
129,san lawrenz,36.06,14.2,72.0,73,0,12.75,MT,1592169756
130,bowen,-20.02,148.23,72.0,100,14,6.93,AU,1592169756
131,norman wells,65.28,-126.83,68.0,49,75,17.22,CA,1592169756
132,puerto escondido,15.85,-97.07,87.8,66,75,11.41,MX,1592169642
133,oksfjord,70.24,22.35,51.01,81,75,3.36,NO,1592169756
134,lebanon,36.21,-86.29,77.0,60,1,4.7,US,1592169756
135,rio grande,-32.03,-52.1,53.6,37,0,5.82,BR,1592169756
136,caravelas,-17.71,-39.25,72.72,79,0,4.07,BR,1592169661
137,la ronge,55.1,-105.28,71.6,56,75,13.87,CA,1592169585
138,saint paul,44.94,-93.09,77.0,38,1,20.8,US,1592169743
139,paciran,-6.88,112.38,79.56,84,86,9.37,ID,1592169615
140,palana,59.12,159.97,52.99,47,59,1.3,RU,1592169756
141,ostrovnoy,68.05,39.51,53.01,64,94,5.17,RU,1592169756
142,aramil,56.7,60.84,46.4,81,0,6.71,RU,1592169756
143,slave lake,55.28,-114.77,60.8,77,75,11.41,CA,1592169756
144,de-kastri,51.47,140.78,47.21,80,92,3.56,RU,1592169757
145,alvorada,-12.48,-49.12,79.14,43,45,4.32,BR,1592169757
146,hasaki,35.73,140.83,73.4,94,75,4.7,JP,1592169757
147,aykhal,66.0,111.5,46.4,75,96,6.71,RU,1592169528
148,vardo,70.37,31.11,48.2,87,99,3.36,NO,1592169558
149,victoria,22.29,114.16,82.0,83,86,8.99,HK,1592169459
150,nanortalik,60.14,-45.24,37.83,84,51,23.33,GL,1592169601
151,tiksi,71.69,128.87,38.07,90,100,5.79,RU,1592169447
152,cabo san lucas,22.89,-109.91,93.2,37,5,18.34,MX,1592169681
153,maceio,-9.67,-35.74,77.0,83,20,3.36,BR,1592169757
154,riohacha,11.54,-72.91,89.6,70,20,13.87,CO,1592169462
155,dingle,11.0,122.67,77.45,86,100,5.03,PH,1592169682
156,nantucket,41.28,-70.1,69.01,68,1,19.46,US,1592169616
157,nichinan,31.6,131.37,78.8,88,75,6.93,JP,1592169757
158,odweyne,9.41,45.06,74.1,63,93,12.26,SO,1592169757
159,baker city,44.77,-117.83,55.4,50,40,12.75,US,1592169757
160,khasan,42.43,130.64,62.31,61,4,7.96,RU,1592169757
161,amapa,1.0,-52.0,78.76,90,83,1.77,BR,1592169757
162,esperance,-33.87,121.9,50.0,93,40,9.17,AU,1592169757
163,tigil,57.8,158.67,59.68,42,4,1.1,RU,1592169757
164,cherskiy,68.75,161.3,66.4,42,33,2.59,RU,1592169757
165,akcakoca,41.09,31.12,66.83,78,30,5.57,TR,1592169757
166,saskylakh,71.92,114.08,48.65,58,29,8.28,RU,1592169757
167,carnarvon,-24.87,113.63,63.39,37,7,18.86,AU,1592169506
168,nuuk,64.18,-51.72,35.6,93,98,11.41,GL,1592169278
169,langres,47.83,5.33,60.8,82,10,5.82,FR,1592169758
170,puerto madryn,-42.77,-65.04,53.13,43,9,3.85,AR,1592169727
171,medicine hat,50.05,-110.67,69.8,30,90,19.46,CA,1592169758
172,turukhansk,65.82,87.98,48.22,88,100,2.44,RU,1592169758
173,hirara,24.8,125.28,82.96,82,45,13.18,JP,1592169758
174,belaya gora,68.53,146.42,72.34,41,100,14.81,RU,1592169758
175,penzance,50.12,-5.54,60.01,93,26,4.7,GB,1592169530
176,sao raimundo nonato,-9.02,-42.7,78.85,58,32,4.92,BR,1592169518
177,te anau,-45.42,167.72,47.57,78,100,7.27,NZ,1592169510
178,safford,32.83,-109.71,98.6,13,1,3.36,US,1592169758
179,codrington,-38.27,141.97,54.14,90,91,13.91,AU,1592169625
180,roald,62.58,6.13,61.0,87,98,3.36,NO,1592169758
181,wethersfield,41.71,-72.65,75.99,35,40,5.59,US,1592169758
182,vanavara,60.34,102.28,58.21,96,100,7.34,RU,1592169279
183,marawi,8.0,124.29,75.99,90,100,5.01,PH,1592169758
184,gat,31.61,34.76,75.0,78,0,5.14,IL,1592169758
185,kloulklubed,7.04,134.26,75.2,94,90,10.89,PW,1592169758
186,xixiang,35.16,112.86,79.0,99,100,3.15,CN,1592169758
187,port blair,11.67,92.75,82.89,82,100,12.73,IN,1592169646
188,garowe,8.41,48.48,84.02,44,99,20.33,SO,1592169758
189,nome,64.5,-165.41,69.01,42,1,8.05,US,1592169451
190,sao filipe,14.9,-24.5,77.74,75,0,12.19,CV,1592169759
191,chuy,-33.7,-53.46,45.81,62,0,1.92,UY,1592169369
192,idlib,35.93,36.63,71.6,73,40,10.29,SY,1592169759
193,souillac,-20.52,57.52,71.6,68,20,10.29,MU,1592169684
194,castro,-24.79,-50.01,56.43,90,100,8.95,BR,1592169759
195,adre,13.47,22.2,80.64,40,64,8.39,TD,1592169759
196,vokhtoga,58.81,41.05,50.18,78,0,3.11,RU,1592169759
197,ahuimanu,21.44,-157.84,87.8,55,75,14.99,US,1592169759
198,namatanai,-3.67,152.43,80.92,81,52,4.88,PG,1592169759
199,srednekolymsk,67.45,153.68,75.02,34,0,9.75,RU,1592169759
200,ballina,-28.87,153.57,57.99,87,99,5.82,AU,1592169759
201,makakilo city,21.35,-158.09,86.0,48,20,8.05,US,1592169563
202,kon tum,14.35,108.0,71.65,94,100,1.01,VN,1592169759
203,urucara,-2.54,-57.76,85.44,71,4,1.74,BR,1592169759
204,barrow,71.29,-156.79,48.2,81,1,6.93,US,1592169506
205,faanui,-16.48,-151.75,80.62,78,35,8.75,PF,1592169595
206,coruripe,-10.13,-36.18,76.01,80,2,9.98,BR,1592169759
207,ancud,-41.87,-73.82,50.0,100,90,3.36,CL,1592169498
208,kodiak,57.79,-152.41,53.6,76,75,5.82,US,1592169377
209,pokaran,26.92,71.92,98.08,18,56,7.87,IN,1592169759
210,georgetown,5.41,100.34,80.01,94,20,3.36,MY,1592169759
211,maniitsoq,65.42,-52.9,34.83,85,100,8.55,GL,1592169759
212,caluquembe,-13.78,14.68,52.48,52,0,2.57,AO,1592169759
213,lompoc,34.64,-120.46,69.8,60,0,21.92,US,1592169759
214,bell ville,-32.63,-62.69,54.0,35,0,1.99,AR,1592169760
215,lanzhou,36.06,103.79,64.4,63,90,2.24,CN,1592169760
216,saldanha,-33.01,17.94,57.2,76,7,3.36,ZA,1592169685
217,jinchang,38.5,102.17,68.63,45,96,3.87,CN,1592169760
218,ardakan,32.31,54.02,89.6,8,0,11.41,IR,1592169760
219,raudeberg,61.99,5.14,61.0,89,88,0.31,NO,1592169688
220,kampot,10.62,104.18,80.6,83,75,6.93,KH,1592169760
221,balabac,7.99,117.06,82.17,74,100,5.5,PH,1592169760
222,atar,20.52,-13.05,101.3,16,1,11.12,MR,1592169545
223,punjai puliyampatti,11.35,77.2,77.0,88,40,16.11,IN,1592169760
224,dolny kubin,49.21,19.3,62.6,82,20,2.24,SK,1592169760
225,kigoma,-4.88,29.63,71.6,83,20,3.89,TZ,1592169760
226,juneau,58.3,-134.42,55.4,76,90,11.41,US,1592169712
227,tiruchchendur,8.48,78.12,84.45,67,100,12.62,IN,1592169760
228,atbasar,51.8,68.33,49.64,61,75,9.42,KZ,1592169760
229,lasa,46.62,10.7,51.8,76,75,5.82,IT,1592169280
230,bengkulu,-3.8,102.27,75.65,74,40,4.21,ID,1592169760
231,zabid,14.2,43.32,92.08,51,100,5.84,YE,1592169760
232,finnsnes,69.23,17.98,50.0,87,75,18.34,NO,1592169760
233,mushie,-3.02,16.9,78.08,68,85,0.54,CD,1592169760
234,kaitangata,-46.28,169.85,37.0,72,90,5.32,NZ,1592169687
235,dragoesti,47.55,26.08,66.0,93,75,10.29,RO,1592169760
236,yavoriv,49.94,23.38,60.8,93,90,6.71,UA,1592169760
237,broome,42.25,-75.83,64.99,44,75,8.05,US,1592169760
238,quatre cocos,-20.21,57.76,71.6,68,20,10.29,MU,1592169761
239,kang,-23.68,22.79,46.36,51,0,1.54,BW,1592169761
240,samarai,-10.62,150.67,79.83,86,3,15.01,PG,1592169761
241,shingu,33.73,135.98,75.11,88,100,6.15,JP,1592169761
242,tautira,-17.73,-149.15,84.2,66,20,4.7,PF,1592169761
243,nemuro,43.32,145.57,55.09,95,100,8.14,JP,1592169377
244,singaraja,-8.11,115.09,79.16,76,1,2.24,ID,1592169479
245,borzya,50.38,116.52,56.57,51,7,1.16,RU,1592169761
246,honiara,-9.43,159.95,78.8,83,75,11.41,SB,1592169761
247,pierre,44.37,-100.35,89.6,40,1,18.34,US,1592169636
248,boyolangu,-8.12,111.89,75.31,89,17,0.89,ID,1592169761
249,forestville,38.85,-76.88,78.8,41,1,8.05,US,1592169737
250,ucluelet,48.93,-125.55,60.01,77,20,8.05,CA,1592169684
251,rocha,-34.48,-54.33,43.3,66,0,1.68,UY,1592169761
252,kiruna,67.86,20.23,60.8,55,25,17.22,SE,1592169761
253,sayat,38.78,63.88,80.6,24,0,2.24,TM,1592169761
254,plettenberg bay,-34.05,23.37,57.31,69,54,8.05,ZA,1592169761
255,tombouctou,20.0,-3.0,101.91,10,0,13.2,ML,1592169761
256,kautokeino,69.01,23.04,60.17,56,61,10.78,NO,1592169682
257,ust-tsilma,65.44,52.15,59.31,60,76,8.08,RU,1592169761
258,hualmay,-11.1,-77.61,67.33,69,48,7.99,PE,1592169761
259,giyani,-23.3,30.72,54.18,59,0,2.93,ZA,1592169761
260,jiayuguan,39.82,98.3,69.4,26,100,12.08,CN,1592169761
261,bonthe,7.53,-12.51,77.94,88,100,9.48,SL,1592169761
262,vung tau,10.35,107.08,80.26,81,100,5.17,VN,1592169467
263,pisco,-13.7,-76.22,66.2,82,90,6.93,PE,1592169536
264,songjianghe,42.19,127.48,52.2,89,51,6.82,CN,1592169762
265,san joaquin,10.26,-67.79,83.14,72,97,2.84,VE,1592169762
266,amga,60.9,131.96,58.03,63,25,4.21,RU,1592169762
267,mahebourg,-20.41,57.7,71.6,68,20,10.29,MU,1592169585
268,avera,33.19,-82.53,86.0,35,40,6.93,US,1592169592
269,careiro da varzea,-3.2,-59.81,86.0,74,20,2.24,BR,1592169762
270,adrar,20.5,-10.07,101.61,13,0,14.92,MR,1592169762
271,batemans bay,-35.72,150.18,46.99,91,0,5.59,AU,1592169762
272,cidreira,-30.18,-50.21,51.57,75,5,5.41,BR,1592169762
273,aldan,58.6,125.39,50.52,85,84,3.47,RU,1592169762
274,kavaratti,10.57,72.64,85.44,76,100,22.53,IN,1592169546
275,jalingo,8.88,11.37,81.82,64,21,3.51,NG,1592169762
276,torbay,47.67,-52.73,45.0,100,90,13.87,CA,1592169762
277,salalah,17.02,54.09,84.2,89,75,4.7,OM,1592169642
278,johi,26.69,67.61,96.28,32,0,10.63,PK,1592169762
279,lumeje,-11.55,20.78,58.15,53,0,4.99,AO,1592169762
280,alice springs,-23.7,133.88,52.0,75,40,8.32,AU,1592169762
281,santa maria,-29.68,-53.81,53.6,54,0,9.17,BR,1592169565
282,clovis,36.83,-119.7,84.0,28,75,9.17,US,1592169762
283,aksarka,66.56,67.8,40.01,72,100,2.98,RU,1592169584
284,ahipara,-35.17,173.17,54.99,77,23,7.94,NZ,1592169762
285,bud,39.45,-86.18,75.0,35,75,8.05,US,1592169532
286,cairns,-16.92,145.77,75.2,88,75,6.93,AU,1592169625
287,sabaudia,41.3,13.03,66.0,89,1,1.01,IT,1592169763
288,prince rupert,54.32,-130.32,53.6,87,90,4.7,CA,1592169662
289,pemberton,50.32,-122.8,53.6,76,75,4.7,CA,1592169650
290,tual,-5.67,132.75,81.7,82,96,16.02,ID,1592169763
291,murwillumbah,-28.32,153.4,59.0,93,68,4.7,AU,1592169763
292,paliyad,22.25,71.57,83.25,72,100,8.5,IN,1592169763
293,north platte,41.12,-100.77,97.0,19,1,21.92,US,1592169763
294,iqaluit,63.75,-68.51,41.0,80,90,9.17,CA,1592169763
295,urusha,54.05,122.9,50.97,81,27,2.64,RU,1592169763
296,mehamn,71.04,27.85,50.0,71,75,19.46,NO,1592169573
297,tiznit,29.58,-9.5,65.05,62,0,3.38,MA,1592169763
298,sretensk,52.25,117.71,54.05,61,99,2.26,RU,1592169763
299,viedma,-40.81,-63.0,51.73,43,2,13.27,AR,1592169763
300,huainan,32.63,117.0,76.12,92,100,1.59,CN,1592169763
301,saint george,37.1,-113.58,91.99,10,1,5.82,US,1592169763
302,pacifica,37.61,-122.49,66.99,63,75,19.46,US,1592169763
303,obo,5.4,26.49,69.6,96,53,1.39,CF,1592169763
304,port macquarie,-31.43,152.92,48.0,87,0,1.12,AU,1592169763
305,papetoai,-17.5,-149.87,84.2,66,20,4.7,PF,1592169763
306,iquique,-20.22,-70.14,62.6,72,75,8.05,CL,1592169563
307,milazzo,38.22,15.24,72.0,75,2,8.34,IT,1592169763
308,sakaiminato,35.55,133.23,73.4,88,75,18.34,JP,1592169763
309,tukrah,32.53,20.58,76.98,38,0,10.54,LY,1592169764
310,flagstaff,35.2,-111.65,79.0,8,1,25.28,US,1592169556
311,lagoa,39.05,-27.98,62.37,73,11,10.02,PT,1592169764
312,general roca,-39.03,-67.58,51.8,57,0,3.22,AR,1592169764
313,san patricio,19.22,-104.7,87.8,74,20,11.41,MX,1592169645
314,paoua,7.24,16.44,72.86,84,44,4.81,CF,1592169764
315,van,38.49,43.38,66.2,40,40,9.17,TR,1592169764
316,kupang,-10.17,123.58,71.6,94,20,3.36,ID,1592169764
317,catamayo,-3.98,-79.35,70.21,61,88,5.75,EC,1592169764
318,caceres,39.52,-6.37,64.99,62,1,7.0,ES,1592169764
319,troitskoye,52.98,84.68,50.38,90,77,6.62,RU,1592169764
320,pecos,31.42,-103.49,95.0,14,1,17.22,US,1592169509
321,taksimo,56.34,114.88,51.67,84,96,0.78,RU,1592169764
322,sept-iles,50.2,-66.38,57.2,46,20,10.29,CA,1592169554
323,lavrentiya,65.58,-171.0,50.02,64,96,4.12,RU,1592169501
324,kulhudhuffushi,6.62,73.07,84.58,78,71,18.1,MV,1592169764
325,west wendover,40.74,-114.07,71.6,19,1,6.93,US,1592169764
326,la palma,33.85,-118.05,81.0,44,1,5.82,US,1592169764
327,naze,28.37,129.48,78.8,100,90,10.29,JP,1592169764
328,harrismith,-28.27,29.13,29.86,72,0,3.09,ZA,1592169764
329,oktyabrskoye,43.06,44.74,68.0,68,96,8.95,RU,1592169764
330,batsfjord,70.63,29.72,51.8,87,92,3.36,NO,1592169764
331,hereford,52.06,-2.71,62.01,75,25,4.34,GB,1592169633
332,zyukayka,58.2,54.7,50.0,84,31,6.08,RU,1592169764
333,dwarka,22.24,68.97,86.07,81,98,12.46,IN,1592169764
334,rawson,-43.3,-65.1,52.25,45,60,5.68,AR,1592169765
335,galveston,29.37,-94.97,90.0,58,1,14.99,US,1592169765
336,sembe,1.65,14.58,74.21,85,33,1.86,CG,1592169765
337,bajil,15.06,43.29,92.66,51,68,2.8,YE,1592169765
338,mount isa,-20.73,139.5,60.8,41,0,11.41,AU,1592169551
339,flinders,-34.58,150.86,55.99,64,0,7.0,AU,1592169765
340,avila,40.58,-5.0,57.99,63,92,3.0,ES,1592169765
341,hambantota,6.12,81.12,82.76,77,99,17.29,LK,1592169544
342,bukachacha,52.98,116.92,54.16,63,91,1.54,RU,1592169765
343,boffa,10.17,-14.03,80.58,82,100,8.52,GN,1592169765
344,pindobacu,-10.74,-40.36,70.43,82,41,8.32,BR,1592169765
345,dingli,35.86,14.38,72.0,73,0,12.75,MT,1592169765
346,katherine,-14.47,132.27,64.4,77,0,5.82,AU,1592169765
347,mumbwa,-14.98,27.06,52.47,85,2,5.88,ZM,1592169765
348,kahului,20.89,-156.47,84.2,54,40,23.04,US,1592169527
349,vilhena,-12.74,-60.15,68.0,100,90,9.17,BR,1592169736
350,basse,52.55,9.51,66.2,93,99,2.24,DE,1592169765
351,gamba,-2.65,10.0,74.39,87,98,6.44,GA,1592169765
352,kavieng,-2.57,150.8,82.54,76,100,5.84,PG,1592169765
353,bilma,18.69,12.92,97.63,9,0,8.57,NE,1592169766
354,bom jesus,-9.07,-44.36,82.36,54,91,5.48,BR,1592169766
355,wittingen,52.73,10.74,66.2,88,75,5.82,DE,1592169766
356,korla,41.76,86.15,72.0,37,0,3.0,CN,1592169766
357,vavozh,56.78,51.93,47.23,89,0,3.09,RU,1592169766
358,mezhdurechensk,53.69,88.06,56.59,94,100,1.19,RU,1592169691
359,hobyo,5.35,48.53,79.59,69,68,23.42,SO,1592169766
360,narsaq,60.92,-46.05,44.6,68,38,24.16,GL,1592169546
361,kawalu,-7.38,108.21,73.78,92,60,0.96,ID,1592169766
362,lieksa,63.32,30.02,57.67,64,27,9.71,FI,1592169766
363,rawah,34.48,41.91,80.49,36,0,4.9,IQ,1592169766
364,centenario do sul,-22.82,-51.6,69.37,85,4,9.44,BR,1592169766
365,tuatapere,-46.13,167.68,39.0,83,100,3.0,NZ,1592169517
366,sayhat,26.49,50.04,87.8,16,0,9.17,SA,1592169766
367,ambon,-3.7,128.18,79.79,84,1,9.33,ID,1592169589
368,rzhev,56.26,34.33,55.33,89,59,8.7,RU,1592169766
369,ambulu,-8.35,113.61,75.83,88,88,3.85,ID,1592169766
370,valparaiso,-33.04,-71.63,55.4,93,90,13.87,CL,1592169766
371,maltahohe,-24.83,16.98,44.15,48,0,4.7,NA,1592169766
372,paamiut,61.99,-49.67,36.77,85,66,3.8,GL,1592169766
373,beloha,-25.17,45.05,58.78,92,0,6.96,MG,1592169766
374,tenenkou,14.46,-4.92,103.03,16,18,7.87,ML,1592169766
375,galatas,37.5,23.45,79.0,59,0,5.48,GR,1592169766
376,mulki,13.1,74.8,75.2,94,75,3.36,IN,1592169766
377,muros,42.78,-9.06,62.01,82,42,3.0,ES,1592169531
378,leningradskiy,69.38,178.42,45.57,80,84,7.25,RU,1592169379
379,busayra,30.74,35.61,62.01,53,0,6.87,JO,1592169767
380,auki,-8.77,160.7,80.78,79,39,4.47,SB,1592169767
381,geraldton,-28.77,114.6,51.8,93,3,8.05,AU,1592169450
382,chase,50.82,-119.69,55.4,87,90,5.82,CA,1592169767
383,villamontes,-21.25,-63.5,69.21,39,0,2.89,BO,1592169767
384,comodoro rivadavia,-45.87,-67.5,53.6,54,100,13.87,AR,1592169767
385,fortuna,40.6,-124.16,71.01,63,20,13.87,US,1592169277
386,anadyr,64.75,177.48,44.6,75,90,13.42,RU,1592169767
387,maningrida,-12.07,134.27,71.91,82,2,8.86,AU,1592169767
388,lae,-6.72,146.98,75.2,78,40,3.36,PG,1592169767
389,havre-saint-pierre,50.23,-63.6,55.4,43,1,18.34,CA,1592169767
390,mon,26.75,95.1,71.58,93,75,3.04,IN,1592169767
391,homer,59.64,-151.55,59.0,71,1,17.22,US,1592169767
392,vincennes,48.85,2.43,64.99,68,24,3.36,FR,1592169767
393,ketchikan,55.34,-131.65,55.4,66,75,16.11,US,1592169450
394,hami,42.8,93.45,76.8,18,79,5.28,CN,1592169767
395,athabasca,54.72,-113.29,65.71,83,100,7.7,CA,1592169767
396,luanda,-8.84,13.23,73.4,88,75,9.17,AO,1592169738
397,northam,51.03,-4.22,59.0,89,5,4.0,GB,1592169767
398,seoul,37.57,126.98,64.4,93,29,6.93,KR,1592169767
399,barda,40.37,47.13,79.72,37,0,2.15,AZ,1592169767
400,qui nhon,13.77,109.23,79.68,81,100,6.11,VN,1592169767
401,mabaruma,8.2,-59.78,83.07,72,23,5.75,GY,1592169767
402,omboue,-1.57,9.26,74.44,87,100,8.34,GA,1592169526
403,zhigansk,66.77,123.37,49.26,76,46,11.01,RU,1592169768
404,jaque,7.52,-78.17,82.67,72,86,2.84,PA,1592169768
405,romano di lombardia,45.52,9.75,70.0,93,75,4.7,IT,1592169768
406,amot,59.57,7.99,60.01,59,1,2.06,NO,1592169768
407,glenwood springs,39.55,-107.32,75.0,17,1,6.93,US,1592169768
408,buchanan,5.88,-10.05,78.8,94,75,7.11,LR,1592169605
409,laguna,38.42,-121.42,84.99,28,1,9.17,US,1592169768
410,princeton,25.54,-80.41,84.99,78,40,4.7,US,1592169681
411,inirida,3.87,-67.92,86.92,67,35,1.79,CO,1592169768
412,riyadh,24.69,46.72,91.4,21,0,4.7,SA,1592169680
413,yeppoon,-23.13,150.73,64.4,93,90,3.36,AU,1592169768
414,half moon bay,37.46,-122.43,77.0,87,40,13.87,US,1592169655
415,komsomolskiy,40.43,71.72,73.4,38,100,6.93,UZ,1592169768
416,muhos,64.81,25.99,62.6,55,41,6.93,FI,1592169768
417,sosnovo-ozerskoye,52.52,111.54,50.41,76,0,1.81,RU,1592169683
418,meulaboh,4.14,96.13,77.27,89,100,4.25,ID,1592169768
419,albuquerque,35.08,-106.65,91.0,15,75,19.46,US,1592169720
420,kokopo,-4.35,152.26,78.24,81,40,5.08,PG,1592169768
421,dhidhdhoo,6.88,73.1,84.65,78,69,18.12,MV,1592169768
422,micheweni,-4.97,39.83,77.92,75,0,14.12,TZ,1592169769
423,skelleftea,64.75,20.95,69.8,46,91,4.7,SE,1592169769
424,sechura,-5.56,-80.82,75.85,53,12,14.67,PE,1592169769
425,barentu,15.11,37.59,75.22,65,100,7.52,ER,1592169769
426,charters towers,-20.1,146.27,65.8,95,14,4.56,AU,1592169769
427,okhotsk,59.38,143.3,49.53,70,72,2.82,RU,1592169769
428,ponta delgada,37.73,-25.67,59.0,82,20,3.36,PT,1592169570
429,saint anthony,45.02,-93.22,77.0,36,20,13.87,US,1592169643
430,manoel urbano,-8.84,-69.26,80.92,76,92,4.99,BR,1592169769
431,pacific grove,36.62,-121.92,71.6,68,40,11.41,US,1592169769
432,shimoda,34.67,138.95,73.0,82,100,1.01,JP,1592169274
433,lebu,-37.62,-73.65,51.26,65,77,2.17,CL,1592169509
434,richards bay,-28.78,32.04,55.26,40,0,3.76,ZA,1592169638
435,clyde river,70.47,-68.59,37.4,86,1,32.21,CA,1592169769
436,coquimbo,-29.95,-71.34,57.2,82,40,6.93,CL,1592169769
437,kralendijk,12.15,-68.27,86.0,66,20,20.8,BQ,1592169769
438,pemangkat,1.17,108.97,79.07,79,96,0.27,ID,1592169769
439,kununurra,-15.77,128.73,78.8,31,0,12.75,AU,1592169575
440,la baule-escoublac,47.29,-2.36,60.01,82,98,8.05,FR,1592169562
441,saint-pierre,-21.34,55.48,71.6,64,9,11.41,RE,1592169769
442,boa esperanca do sul,-21.99,-48.39,67.41,75,1,12.21,BR,1592169769
443,taltal,-25.4,-70.48,61.97,71,28,2.35,CL,1592169769
444,bezhanitsy,56.98,29.89,59.88,80,100,11.32,RU,1592169769
445,tucupita,9.06,-62.05,82.24,81,100,5.35,VE,1592169769
446,mondragon,12.52,124.75,76.55,89,100,2.77,PH,1592169769
447,najran,17.49,44.13,80.6,21,71,2.24,SA,1592169608
448,san juan del sur,11.25,-85.87,84.61,69,83,5.01,NI,1592169770
449,arroio grande,-32.24,-53.09,42.01,63,0,3.89,BR,1592169770
450,bay roberts,47.6,-53.26,45.0,1,100,9.33,CA,1592169770
451,deputatskiy,69.3,139.9,65.25,43,0,3.33,RU,1592169770
452,petropavlovsk-kamchatskiy,53.05,158.65,39.2,100,90,2.24,RU,1592169770
453,nova friburgo,-22.28,-42.53,64.0,85,53,4.45,BR,1592169770
454,parnu-jaagupi,58.61,24.51,62.01,73,94,3.85,EE,1592169770
455,palmer,42.16,-72.33,73.99,40,75,3.36,US,1592169541
456,karpogory,64.0,44.45,59.07,73,69,7.81,RU,1592169770
457,nabire,-3.37,135.48,75.9,89,71,3.33,ID,1592169770
458,hovd,48.01,91.64,61.75,38,89,9.06,MN,1592169770
459,magdagachi,53.45,125.8,54.72,77,26,4.16,RU,1592169770
460,sao joao da barra,-21.64,-41.05,75.2,83,75,13.87,BR,1592169770
461,keti bandar,24.14,67.45,84.87,82,30,18.25,PK,1592169770
462,zmeinogorsk,51.16,82.19,52.68,88,73,8.08,RU,1592169771
463,sur,22.57,59.53,86.97,58,90,11.36,OM,1592169771
464,cayenne,4.93,-52.33,84.2,74,90,6.93,GF,1592169699
465,ixtapa,20.7,-105.2,84.0,74,5,14.99,MX,1592169771
466,winchester,51.07,-1.32,57.2,82,64,3.36,GB,1592169706
467,maria aurora,15.8,121.47,75.34,86,4,1.36,PH,1592169771
468,belozerskoye,55.82,65.58,46.06,75,0,6.6,RU,1592169771
469,sola,-13.88,167.55,82.4,78,75,14.99,VU,1592169771
470,palafrugell,41.92,3.16,64.0,51,36,4.0,ES,1592169771
471,brattvag,62.6,6.44,61.0,87,100,3.36,NO,1592169771
472,oistins,13.07,-59.53,84.2,70,75,19.46,BB,1592169771
473,saint-leu,-21.15,55.28,71.6,64,44,11.41,RE,1592169771
474,zelenoborsk,61.47,64.03,44.33,69,16,3.78,RU,1592169771
475,bela,25.93,81.98,89.92,61,84,9.98,IN,1592169771
476,brigantine,39.41,-74.36,69.8,52,1,14.99,US,1592169771
477,tabou,4.42,-7.35,78.75,86,100,8.52,CI,1592169771
478,lamar,33.67,-95.58,93.0,40,1,10.29,US,1592169771
479,coihaique,-45.58,-72.07,42.8,87,40,3.36,CL,1592169630
480,sasykoli,47.55,47.0,76.98,35,71,18.79,RU,1592169771
481,nezhinka,51.77,55.37,48.2,93,0,6.71,RU,1592169771
482,miandrivazo,-19.52,45.47,68.11,46,0,3.76,MG,1592169771
483,luderitz,-26.65,15.16,62.6,32,32,18.34,NA,1592169772
484,cururupu,-1.83,-44.87,77.97,88,30,3.69,BR,1592169772
485,grand-santi,4.25,-54.38,79.79,88,64,2.73,GF,1592169772
486,peachland,49.77,-119.74,53.6,66,90,8.05,CA,1592169772
487,san quintin,30.48,-115.95,70.63,59,0,16.04,MX,1592169515
488,jatiroto,-7.88,111.12,74.14,87,3,2.33,ID,1592169772
489,bilecik,40.0,30.17,64.4,93,20,2.24,TR,1592169772
490,la rioja,42.25,-2.5,64.4,59,100,4.7,ES,1592169772
491,tsalenjikha,42.6,42.07,66.2,93,100,8.05,GE,1592169484
492,lubango,-14.92,13.49,55.44,40,0,4.74,AO,1592169772
493,kota tinggi,1.74,103.9,79.0,94,20,1.23,MY,1592169772
494,guerrero negro,27.98,-114.06,74.1,49,0,19.35,MX,1592169565
495,mramor,44.59,18.56,62.6,100,75,5.82,BA,1592169772
496,gandara,12.01,124.81,74.48,93,97,2.82,PH,1592169772
497,eenhana,-17.47,16.33,57.2,44,0,2.24,NA,1592169666
498,hanzhong,33.07,107.03,69.33,89,100,1.79,CN,1592169772
499,inzer,54.22,57.56,42.67,80,0,2.39,RU,1592169772
500,saint-joseph,-21.37,55.62,71.6,64,19,11.41,RE,1592169773
501,vila franca do campo,37.72,-25.43,59.0,82,20,3.36,PT,1592169582
502,san carlos de bariloche,-41.15,-71.31,42.8,60,70,3.36,AR,1592169615
503,paralimni,35.04,33.98,69.8,77,0,6.93,CY,1592169773
504,upington,-28.45,21.26,42.8,24,0,2.24,ZA,1592169594
505,college,64.86,-147.8,55.4,93,90,6.93,US,1592169773
506,shenzhen,22.55,114.07,82.0,90,82,3.0,CN,1592169486
507,sambava,-14.27,50.17,71.1,73,57,12.91,MG,1592169773
508,mandal,25.45,74.57,91.98,35,52,5.37,IN,1592169773
509,pedernales,18.04,-71.74,86.0,70,40,18.34,DO,1592169773
510,naryan-mar,67.67,53.09,52.25,59,95,4.94,RU,1592169773
511,ternate,0.8,127.4,80.33,77,55,3.78,ID,1592169773
512,vanimo,-2.67,141.3,77.94,86,47,4.88,PG,1592169605
513,verkhnevilyuysk,63.45,120.32,51.3,87,2,2.1,RU,1592169773
514,stephenville,32.22,-98.2,89.6,24,1,11.41,US,1592169773
515,aranos,-24.13,19.12,48.2,41,0,9.42,NA,1592169666
516,porto torres,40.84,8.4,66.2,82,77,6.93,IT,1592169773
517,batagay-alyta,67.8,130.41,57.81,59,91,2.51,RU,1592169773
518,svetlogorsk,52.63,29.73,63.99,96,98,8.81,BY,1592169774
519,dongsheng,39.82,109.98,62.8,31,100,1.68,CN,1592169774
520,pochutla,15.74,-96.47,86.0,62,40,7.11,MX,1592169774
521,morehead,37.27,-87.18,79.0,64,1,8.05,US,1592169774
522,san policarpo,12.18,125.51,79.68,83,53,0.74,PH,1592169774
523,quimper,48.0,-4.1,57.2,82,90,1.12,FR,1592169702
524,port hueneme,34.15,-119.2,75.99,68,1,8.05,US,1592169774
525,kirakira,-10.45,161.92,81.46,80,78,14.36,SB,1592169774
526,tanggulangin,-7.5,112.7,78.57,76,70,3.4,ID,1592169774
527,san andres,12.58,-81.7,82.4,83,90,3.36,CO,1592169579
528,tessalit,20.2,1.01,99.82,9,0,17.81,ML,1592169774
529,merauke,-8.47,140.33,79.57,82,100,15.73,ID,1592169774
530,jutai,-5.18,-68.9,83.88,75,7,3.98,BR,1592169774
531,tateyama,34.98,139.87,75.0,92,100,21.63,JP,1592169450
532,kamaishi,39.27,141.88,66.22,91,85,7.18,JP,1592169540
533,yurkivka,49.01,31.1,63.73,88,0,5.35,UA,1592169774
534,sorland,67.67,12.69,48.76,91,99,5.53,NO,1592169774
535,omis,43.44,16.69,68.0,60,75,8.05,HR,1592169774
536,bratsk,56.13,101.61,62.6,72,5,6.71,RU,1592169774
537,nishihara,26.18,127.76,80.6,94,75,10.29,JP,1592169774
538,tongling,30.95,117.78,77.0,92,99,1.39,CN,1592169774
539,bilibino,68.05,166.44,61.92,54,84,1.92,RU,1592169499
540,betare oya,5.6,14.08,69.42,92,63,1.77,CM,1592169774
541,buala,-8.14,159.59,82.62,76,90,9.95,SB,1592169775
542,pahrump,36.21,-115.98,90.0,11,10,4.0,US,1592169775
543,tazovskiy,67.47,78.7,39.6,75,100,24.52,RU,1592169775
544,hobe sound,27.06,-80.14,82.99,69,40,9.17,US,1592169775
545,kilindoni,-7.91,39.67,79.59,72,0,18.99,TZ,1592169775
546,nokaneng,-19.67,22.27,53.87,42,0,4.92,BW,1592169775
547,salinas,36.68,-121.66,71.6,56,1,16.11,US,1592169513
548,rio de janeiro,-22.9,-43.21,73.4,78,75,16.11,BR,1592169510
549,siyabuswa,-25.11,29.04,43.83,54,0,1.77,ZA,1592169775
550,port-gentil,-0.72,8.78,74.73,88,100,13.47,GA,1592169694
551,canete,-37.8,-73.4,50.56,68,69,1.16,CL,1592169775
552,johnson city,36.31,-82.35,69.8,77,40,8.05,US,1592169775
553,karratha,-20.74,116.85,70.43,40,1,14.27,AU,1592169775
554,muroran,42.32,140.99,66.2,88,40,2.24,JP,1592169775
555,portland,45.52,-122.68,66.99,48,90,4.7,US,1592169391
556,high level,58.52,-117.14,69.8,64,90,11.41,CA,1592169775
557,pringsewu,-5.36,104.97,72.59,92,56,0.47,ID,1592169775
558,locri,38.24,16.26,72.0,86,47,17.0,IT,1592169775
559,juye,35.39,116.09,78.53,43,99,3.06,CN,1592169775
560,ziarat,30.38,67.73,63.54,27,0,1.28,PK,1592169775
561,xiamen,24.48,118.08,80.6,83,89,2.24,CN,1592169775
562,abu samrah,35.3,37.18,67.71,50,41,7.36,SY,1592169776
563,itarema,-2.92,-39.92,78.76,80,17,10.16,BR,1592169534
564,colac,-38.33,143.58,51.01,98,94,14.03,AU,1592169776
565,abay,49.63,72.85,48.2,61,40,11.18,KZ,1592169776
566,rio gallegos,-51.62,-69.22,39.2,86,90,5.82,AR,1592169776
567,roma,43.21,-75.46,64.99,45,90,3.36,US,1592169776
568,rundu,-17.93,19.77,52.99,44,0,4.99,NA,1592169776
569,bairiki,1.33,172.98,84.2,70,20,5.82,KI,1592169776
570,saint-francois,46.42,3.91,60.8,67,2,3.36,FR,1592169705
